{"type":"line","id":"metro_l1","system":"Metro","name":"Línea 1","color":"#F05A9D","valid_from":1969,"valid_to":9999,"points":[[-99.200341701508,19.398298021394],[-99.18710231781,19.40317568567],[-99.182145595551,19.412910337685],[-99.175901412964,19.42084334447],[-99.17060136795,19.421915889653],[-99.162769317627,19.423635994506],[-99.154658317566,19.425902457802],[-99.149057865143,19.427420161084],[-99.142234325409,19.426792845446],[-99.137470722198,19.426529776877],[-99.132900238037,19.425760804772],[-99.125046730042,19.42586198552],[-99.11906003952,19.428836671354],[-99.114789962769,19.43029364046],[-99.110262393951,19.427238037439],[-99.102258682251,19.423231265591],[-99.095735549927,19.419447001456],[-99.090349674225,19.416391194454],[-99.082367420197,19.412282966038],[-99.072207,19.415359]],"stations":[{"id":"metro_l1_1","name":"Observatorio","lon":-99.200341701508,"lat":19.398298021394,"valid_from":1972,"valid_to":9999},{"id":"metro_l1_2","name":"Tacubaya","lon":-99.18710231781,"lat":19.40317568567,"valid_from":1970,"valid_to":9999},{"id":"metro_l1_3","name":"Juanacatlán","lon":-99.182145595551,"lat":19.412910337685,"valid_from":1970,"valid_to":9999},{"id":"metro_l1_4","name":"Chapultepec","lon":-99.175901412964,"lat":19.42084334447,"valid_from":1969,"valid_to":9999},{"id":"metro_l1_5","name":"Sevilla","lon":-99.17060136795,"lat":19.421915889653,"valid_from":1969,"valid_to":9999},{"id":"metro_l1_6","name":"Insurgentes","lon":-99.162769317627,"lat":19.423635994506,"valid_from":1969,"valid_to":9999},{"id":"metro_l1_7","name":"Cuauhtémoc","lon":-99.154658317566,"lat":19.425902457802,"valid_from":1969,"valid_to":9999},{"id":"metro_l1_8","name":"Balderas","lon":-99.149057865143,"lat":19.427420161084,"valid_from":1969,"valid_to":9999},{"id":"metro_l1_9","name":"Salto del Agua","lon":-99.142234325409,"lat":19.426792845446,"valid_from":1969,"valid_to":9999},{"id":"metro_l1_10","name":"Isabel la Católica","lon":-99.137470722198,"lat":19.426529776877,"valid_from":1969,"valid_to":9999},{"id":"metro_l1_11","name":"Pino Suárez","lon":-99.132900238037,"lat":19.425760804772,"valid_from":1969,"valid_to":9999},{"id":"metro_l1_12","name":"Merced","lon":-99.125046730042,"lat":19.42586198552,"valid_from":1969,"valid_to":9999},{"id":"metro_l1_13","name":"Candelaria","lon":-99.11906003952,"lat":19.428836671354,"valid_from":1969,"valid_to":9999},{"id":"metro_l1_14","name":"San Lázaro","lon":-99.114789962769,"lat":19.43029364046,"valid_from":1969,"valid_to":9999},{"id":"metro_l1_15","name":"Moctezuma","lon":-99.110262393951,"lat":19.427238037439,"valid_from":1969,"valid_to":9999},{"id":"metro_l1_16","name":"Balbuena","lon":-99.102258682251,"lat":19.423231265591,"valid_from":1969,"valid_to":9999},{"id":"metro_l1_17","name":"Boulevard Puerto Aéreo","lon":-99.095735549927,"lat":19.419447001456,"valid_from":1969,"valid_to":9999},{"id":"metro_l1_18","name":"Gómez Farías","lon":-99.090349674225,"lat":19.416391194454,"valid_from":1969,"valid_to":9999},{"id":"metro_l1_19","name":"Zaragoza","lon":-99.082367420197,"lat":19.412282966038,"valid_from":1969,"valid_to":9999},{"id":"metro_l1_20","name":"Pantitlán","lon":-99.072207,"lat":19.415359,"valid_from":1984,"valid_to":9999}],"source_precision":"base_integrada","point_valid_from":[1972,1970,1970,1969,1969,1969,1969,1969,1969,1969,1969,1969,1969,1969,1969,1969,1969,1969,1969,1984]}
{"type":"line","id":"metro_l2","system":"Metro","name":"Línea 2","color":"#005DAA","valid_from":1970,"valid_to":9999,"points":[[-99.215898513794,19.459592132589],[-99.203174114227,19.458803085067],[-99.189248085022,19.459369581113],[-99.182360172272,19.457487997333],[-99.174764156342,19.452146608312],[-99.171545505524,19.448970017051],[-99.167382717133,19.445287521322],[-99.161095619202,19.441807283723],[-99.155666828156,19.439905261873],[-99.147298336029,19.437497351185],[-99.141933917999,19.436445143706],[-99.137427806854,19.435575043909],[-99.133007526398,19.433248009916],[-99.132900238037,19.425801277079],[-99.134166240692,19.418738706934],[-99.135775566101,19.408498447018],[-99.136934280396,19.400888666272],[-99.137814044952,19.395221577028],[-99.138994216919,19.387570693515],[-99.140174388885,19.379433645109],[-99.141590595245,19.369919665097],[-99.142929077148,19.361904144287],[-99.145002365112,19.353278986282],[-99.142642021179,19.34418865273]],"stations":[{"id":"metro_l2_1","name":"Cuatro Caminos","lon":-99.215898513794,"lat":19.459592132589,"valid_from":1984,"valid_to":9999},{"id":"metro_l2_2","name":"Panteones","lon":-99.203174114227,"lat":19.458803085067,"valid_from":1984,"valid_to":9999},{"id":"metro_l2_3","name":"Tacuba","lon":-99.189248085022,"lat":19.459369581113,"valid_from":1970,"valid_to":9999},{"id":"metro_l2_4","name":"Cuitláhuac","lon":-99.182360172272,"lat":19.457487997333,"valid_from":1970,"valid_to":9999},{"id":"metro_l2_5","name":"Popotla","lon":-99.174764156342,"lat":19.452146608312,"valid_from":1970,"valid_to":9999},{"id":"metro_l2_6","name":"Colegio Militar","lon":-99.171545505524,"lat":19.448970017051,"valid_from":1970,"valid_to":9999},{"id":"metro_l2_7","name":"Normal","lon":-99.167382717133,"lat":19.445287521322,"valid_from":1970,"valid_to":9999},{"id":"metro_l2_8","name":"San Cosme","lon":-99.161095619202,"lat":19.441807283723,"valid_from":1970,"valid_to":9999},{"id":"metro_l2_9","name":"Revolución","lon":-99.155666828156,"lat":19.439905261873,"valid_from":1970,"valid_to":9999},{"id":"metro_l2_10","name":"Hidalgo","lon":-99.147298336029,"lat":19.437497351185,"valid_from":1970,"valid_to":9999},{"id":"metro_l2_11","name":"Bellas Artes","lon":-99.141933917999,"lat":19.436445143706,"valid_from":1970,"valid_to":9999},{"id":"metro_l2_12","name":"Allende","lon":-99.137427806854,"lat":19.435575043909,"valid_from":1970,"valid_to":9999},{"id":"metro_l2_13","name":"Zócalo","lon":-99.133007526398,"lat":19.433248009916,"valid_from":1970,"valid_to":9999},{"id":"metro_l2_14","name":"Pino Suárez","lon":-99.132900238037,"lat":19.425801277079,"valid_from":1970,"valid_to":9999},{"id":"metro_l2_15","name":"San Antonio Abad","lon":-99.134166240692,"lat":19.418738706934,"valid_from":1970,"valid_to":9999},{"id":"metro_l2_16","name":"Chabacano","lon":-99.135775566101,"lat":19.408498447018,"valid_from":1970,"valid_to":9999},{"id":"metro_l2_17","name":"Viaducto","lon":-99.136934280396,"lat":19.400888666272,"valid_from":1970,"valid_to":9999},{"id":"metro_l2_18","name":"Xola","lon":-99.137814044952,"lat":19.395221577028,"valid_from":1970,"valid_to":9999},{"id":"metro_l2_19","name":"Villa de Cortéz","lon":-99.138994216919,"lat":19.387570693515,"valid_from":1970,"valid_to":9999},{"id":"metro_l2_20","name":"Nativitas","lon":-99.140174388885,"lat":19.379433645109,"valid_from":1970,"valid_to":9999},{"id":"metro_l2_21","name":"Portales","lon":-99.141590595245,"lat":19.369919665097,"valid_from":1970,"valid_to":9999},{"id":"metro_l2_22","name":"Ermita","lon":-99.142929077148,"lat":19.361904144287,"valid_from":1970,"valid_to":9999},{"id":"metro_l2_23","name":"General Anaya","lon":-99.145002365112,"lat":19.353278986282,"valid_from":1970,"valid_to":9999},{"id":"metro_l2_24","name":"Tasqueña","lon":-99.142642021179,"lat":19.34418865273,"valid_from":1970,"valid_to":9999}],"source_precision":"base_integrada","point_valid_from":[1984,1984,1970,1970,1970,1970,1970,1970,1970,1970,1970,1970,1970,1970,1970,1970,1970,1970,1970,1970,1970,1970,1970,1970]}
{"type":"line","id":"metro_l3","system":"Metro","name":"Línea 3","color":"#B59A2A","valid_from":1970,"valid_to":9999,"points":[[-99.119510650635,19.49539870767],[-99.126580953598,19.48378772509],[-99.132192134857,19.476960321374],[-99.136934280396,19.470274244218],[-99.142813682556,19.45510058004],[-99.145367145538,19.44512565146],[-99.147319793701,19.437497351185],[-99.147899150848,19.433268245138],[-99.149100780487,19.427399925133],[-99.151010513306,19.419952924224],[-99.15399312973,19.413517469231],[-99.155666828156,19.407041282521],[-99.156267642975,19.395626375662],[-99.157469272614,19.385506107787],[-99.159100055695,19.379818241127],[-99.164936542511,19.370729387151],[-99.17049407959,19.361457828976],[-99.176030158997,19.353704134251],[-99.181008338928,19.346840895911],[-99.176630973816,19.335907707753],[-99.174313545227,19.324123340778]],"stations":[{"id":"metro_l3_1","name":"Indios Verdes","lon":-99.119510650635,"lat":19.49539870767,"valid_from":1979,"valid_to":9999},{"id":"metro_l3_2","name":"Deportivo 18 de Marzo","lon":-99.126580953598,"lat":19.48378772509,"valid_from":1979,"valid_to":9999},{"id":"metro_l3_3","name":"Potrero","lon":-99.132192134857,"lat":19.476960321374,"valid_from":1979,"valid_to":9999},{"id":"metro_l3_4","name":"La Raza","lon":-99.136934280396,"lat":19.470274244218,"valid_from":1978,"valid_to":9999},{"id":"metro_l3_5","name":"Tlatelolco","lon":-99.142813682556,"lat":19.45510058004,"valid_from":1970,"valid_to":9999},{"id":"metro_l3_6","name":"Guerrero","lon":-99.145367145538,"lat":19.44512565146,"valid_from":1970,"valid_to":9999},{"id":"metro_l3_7","name":"Hidalgo","lon":-99.147319793701,"lat":19.437497351185,"valid_from":1970,"valid_to":9999},{"id":"metro_l3_8","name":"Juárez","lon":-99.147899150848,"lat":19.433268245138,"valid_from":1970,"valid_to":9999},{"id":"metro_l3_9","name":"Balderas","lon":-99.149100780487,"lat":19.427399925133,"valid_from":1970,"valid_to":9999},{"id":"metro_l3_10","name":"Niños Héroes","lon":-99.151010513306,"lat":19.419952924224,"valid_from":1970,"valid_to":9999},{"id":"metro_l3_11","name":"Hospital General","lon":-99.15399312973,"lat":19.413517469231,"valid_from":1970,"valid_to":9999},{"id":"metro_l3_12","name":"Centro Médico","lon":-99.155666828156,"lat":19.407041282521,"valid_from":1980,"valid_to":9999},{"id":"metro_l3_13","name":"Etiopía / Plaza de la Transparencia","lon":-99.156267642975,"lat":19.395626375662,"valid_from":1980,"valid_to":9999},{"id":"metro_l3_14","name":"Eugenia","lon":-99.157469272614,"lat":19.385506107787,"valid_from":1980,"valid_to":9999},{"id":"metro_l3_15","name":"División del Norte","lon":-99.159100055695,"lat":19.379818241127,"valid_from":1980,"valid_to":9999},{"id":"metro_l3_16","name":"Zapata","lon":-99.164936542511,"lat":19.370729387151,"valid_from":1980,"valid_to":9999},{"id":"metro_l3_17","name":"Coyoacán","lon":-99.17049407959,"lat":19.361457828976,"valid_from":1983,"valid_to":9999},{"id":"metro_l3_18","name":"Viveros / Derechos Humanos","lon":-99.176030158997,"lat":19.353704134251,"valid_from":1983,"valid_to":9999},{"id":"metro_l3_19","name":"Miguel Ángel de Quevedo","lon":-99.181008338928,"lat":19.346840895911,"valid_from":1983,"valid_to":9999},{"id":"metro_l3_20","name":"Copilco","lon":-99.176630973816,"lat":19.335907707753,"valid_from":1983,"valid_to":9999},{"id":"metro_l3_21","name":"Universidad","lon":-99.174313545227,"lat":19.324123340778,"valid_from":1983,"valid_to":9999}],"source_precision":"base_integrada","point_valid_from":[1979,1979,1979,1978,1970,1970,1970,1970,1970,1970,1970,1980,1980,1980,1980,1980,1983,1983,1983,1983,1983]}
{"type":"line","id":"metro_l4","system":"Metro","name":"Línea 4","color":"#6EC6A4","valid_from":1981,"valid_to":9999,"points":[[-99.104404449463,19.485122828173],[-99.108052253723,19.474360774988],[-99.111957550049,19.464771426131],[-99.113931655884,19.458094962228],[-99.116184711456,19.448868850702],[-99.11824464798,19.438974477102],[-99.11906003952,19.428836671354],[-99.120562076569,19.421673049854],[-99.121785163879,19.409105595039],[-99.122107028961,19.403114968757]],"stations":[{"id":"metro_l4_1","name":"Martín Carrera","lon":-99.104404449463,"lat":19.485122828173,"valid_from":1981,"valid_to":9999},{"id":"metro_l4_2","name":"Talismán","lon":-99.108052253723,"lat":19.474360774988,"valid_from":1981,"valid_to":9999},{"id":"metro_l4_3","name":"Bondojito","lon":-99.111957550049,"lat":19.464771426131,"valid_from":1981,"valid_to":9999},{"id":"metro_l4_4","name":"Consulado","lon":-99.113931655884,"lat":19.458094962228,"valid_from":1981,"valid_to":9999},{"id":"metro_l4_5","name":"Canal del Norte","lon":-99.116184711456,"lat":19.448868850702,"valid_from":1981,"valid_to":9999},{"id":"metro_l4_6","name":"Morelos","lon":-99.11824464798,"lat":19.438974477102,"valid_from":1981,"valid_to":9999},{"id":"metro_l4_7","name":"Candelaria","lon":-99.11906003952,"lat":19.428836671354,"valid_from":1981,"valid_to":9999},{"id":"metro_l4_8","name":"Fray Servando","lon":-99.120562076569,"lat":19.421673049854,"valid_from":1981,"valid_to":9999},{"id":"metro_l4_9","name":"Jamaica","lon":-99.121785163879,"lat":19.409105595039,"valid_from":1981,"valid_to":9999},{"id":"metro_l4_10","name":"Santa Anita","lon":-99.122107028961,"lat":19.403114968757,"valid_from":1981,"valid_to":9999}],"source_precision":"base_integrada","point_valid_from":[1981,1981,1981,1981,1981,1981,1981,1981,1981,1981]}
{"type":"line","id":"metro_l5","system":"Metro","name":"Línea 5","color":"#FFD100","valid_from":1981,"valid_to":9999,"points":[[-99.072196483612,19.41535908772],[-99.087431430817,19.424101431512],[-99.087710380554,19.433814595177],[-99.087195396423,19.445793363598],[-99.09637928009,19.450811233576],[-99.105434417725,19.451013563788],[-99.113931655884,19.458054497972],[-99.119317531586,19.458722156899],[-99.130798339844,19.463405609131],[-99.136912822723,19.470881161245],[-99.140689373016,19.479114777624],[-99.14528131485,19.489370810201],[-99.149658679962,19.50053640278]],"stations":[{"id":"metro_l5_1","name":"Pantitlán","lon":-99.072196483612,"lat":19.41535908772,"valid_from":1981,"valid_to":9999},{"id":"metro_l5_2","name":"Hangares","lon":-99.087431430817,"lat":19.424101431512,"valid_from":1981,"valid_to":9999},{"id":"metro_l5_3","name":"Terminal Aérea","lon":-99.087710380554,"lat":19.433814595177,"valid_from":1981,"valid_to":9999},{"id":"metro_l5_4","name":"Oceanía","lon":-99.087195396423,"lat":19.445793363598,"valid_from":1981,"valid_to":9999},{"id":"metro_l5_5","name":"Aragón","lon":-99.09637928009,"lat":19.450811233576,"valid_from":1981,"valid_to":9999},{"id":"metro_l5_6","name":"Eduardo Molina","lon":-99.105434417725,"lat":19.451013563788,"valid_from":1981,"valid_to":9999},{"id":"metro_l5_7","name":"Consulado","lon":-99.113931655884,"lat":19.458054497972,"valid_from":1981,"valid_to":9999},{"id":"metro_l5_8","name":"Valle Gómez","lon":-99.119317531586,"lat":19.458722156899,"valid_from":1981,"valid_to":9999},{"id":"metro_l5_9","name":"Misterios","lon":-99.130798339844,"lat":19.463405609131,"valid_from":1981,"valid_to":9999},{"id":"metro_l5_10","name":"La Raza","lon":-99.136912822723,"lat":19.470881161245,"valid_from":1981,"valid_to":9999},{"id":"metro_l5_11","name":"Autobuses del Norte","lon":-99.140689373016,"lat":19.479114777624,"valid_from":1981,"valid_to":9999},{"id":"metro_l5_12","name":"Instituto del Petróleo","lon":-99.14528131485,"lat":19.489370810201,"valid_from":1981,"valid_to":9999},{"id":"metro_l5_13","name":"Politécnico","lon":-99.149658679962,"lat":19.50053640278,"valid_from":1981,"valid_to":9999}],"source_precision":"base_integrada","point_valid_from":[1981,1981,1981,1981,1981,1981,1981,1981,1981,1981,1981,1981,1981]}
{"type":"line","id":"metro_l6","system":"Metro","name":"Línea 6","color":"#DA291C","valid_from":1983,"valid_to":9999,"points":[[-99.200084209442,19.5045817172],[-99.196286201477,19.495034612851],[-99.186437129974,19.491029515783],[-99.173991680145,19.490989059751],[-99.162790775299,19.488946017013],[-99.155555725098,19.490325927734],[-99.14528131485,19.48939103842],[-99.134745597839,19.487772772896],[-99.126591682434,19.483807954006],[-99.11794424057,19.481542299628],[-99.104382991791,19.485062141908]],"stations":[{"id":"metro_l6_1","name":"El Rosario","lon":-99.200084209442,"lat":19.5045817172,"valid_from":1986,"valid_to":9999},{"id":"metro_l6_2","name":"Tezozómoc","lon":-99.196286201477,"lat":19.495034612851,"valid_from":1983,"valid_to":9999},{"id":"metro_l6_3","name":"Azcapotzalco","lon":-99.186437129974,"lat":19.491029515783,"valid_from":1983,"valid_to":9999},{"id":"metro_l6_4","name":"Ferrería","lon":-99.173991680145,"lat":19.490989059751,"valid_from":1983,"valid_to":9999},{"id":"metro_l6_5","name":"Norte 45","lon":-99.162790775299,"lat":19.488946017013,"valid_from":1983,"valid_to":9999},{"id":"metro_l6_6","name":"Vallejo","lon":-99.155555725098,"lat":19.490325927734,"valid_from":1983,"valid_to":9999},{"id":"metro_l6_7","name":"Instituto del Petróleo","lon":-99.14528131485,"lat":19.48939103842,"valid_from":1983,"valid_to":9999},{"id":"metro_l6_8","name":"Lindavista","lon":-99.134745597839,"lat":19.487772772896,"valid_from":1983,"valid_to":9999},{"id":"metro_l6_9","name":"Deportivo 18 de Marzo","lon":-99.126591682434,"lat":19.483807954006,"valid_from":1983,"valid_to":9999},{"id":"metro_l6_10","name":"La Villa-Basílica","lon":-99.11794424057,"lat":19.481542299628,"valid_from":1983,"valid_to":9999},{"id":"metro_l6_11","name":"Martín Carrera","lon":-99.104382991791,"lat":19.485062141908,"valid_from":1983,"valid_to":9999}],"source_precision":"base_integrada","point_valid_from":[1986,1983,1983,1983,1983,1983,1983,1983,1983,1983,1983]}
{"type":"line","id":"metro_l7","system":"Metro","name":"Línea 7","color":"#F58220","valid_from":1984,"valid_to":9999,"points":[[-99.200084209442,19.504622169833],[-99.194869995117,19.490503586585],[-99.190170764923,19.4792159251],[-99.190599918365,19.470092168667],[-99.189248085022,19.459349349145],[-99.191865921021,19.445833830912],[-99.19105052948,19.433065892805],[-99.191994667053,19.425538206904],[-99.190943241119,19.411918684616],[-99.187123775482,19.40317568567],[-99.186072349548,19.391274737581],[-99.186050891876,19.384514287687],[-99.18751001358,19.375911513019],[-99.190170764923,19.360708793614]],"stations":[{"id":"metro_l7_1","name":"El Rosario","lon":-99.200084209442,"lat":19.504622169833,"valid_from":1988,"valid_to":9999},{"id":"metro_l7_2","name":"Aquiles Serdán","lon":-99.194869995117,"lat":19.490503586585,"valid_from":1988,"valid_to":9999},{"id":"metro_l7_3","name":"Camarones","lon":-99.190170764923,"lat":19.4792159251,"valid_from":1984,"valid_to":9999},{"id":"metro_l7_4","name":"Refinería","lon":-99.190599918365,"lat":19.470092168667,"valid_from":1984,"valid_to":9999},{"id":"metro_l7_5","name":"Tacuba","lon":-99.189248085022,"lat":19.459349349145,"valid_from":1984,"valid_to":9999},{"id":"metro_l7_6","name":"San Joaquín","lon":-99.191865921021,"lat":19.445833830912,"valid_from":1984,"valid_to":9999},{"id":"metro_l7_7","name":"Polanco","lon":-99.19105052948,"lat":19.433065892805,"valid_from":1984,"valid_to":9999},{"id":"metro_l7_8","name":"Auditorio","lon":-99.191994667053,"lat":19.425538206904,"valid_from":1984,"valid_to":9999},{"id":"metro_l7_9","name":"Constituyentes","lon":-99.190943241119,"lat":19.411918684616,"valid_from":1984,"valid_to":9999},{"id":"metro_l7_10","name":"Tacubaya","lon":-99.187123775482,"lat":19.40317568567,"valid_from":1984,"valid_to":9999},{"id":"metro_l7_11","name":"San Pedro de los Pinos","lon":-99.186072349548,"lat":19.391274737581,"valid_from":1984,"valid_to":9999},{"id":"metro_l7_12","name":"San Antonio","lon":-99.186050891876,"lat":19.384514287687,"valid_from":1984,"valid_to":9999},{"id":"metro_l7_13","name":"Mixcoac","lon":-99.18751001358,"lat":19.375911513019,"valid_from":1984,"valid_to":9999},{"id":"metro_l7_14","name":"Barranca del Muerto","lon":-99.190170764923,"lat":19.360708793614,"valid_from":1985,"valid_to":9999}],"source_precision":"base_integrada","point_valid_from":[1988,1988,1984,1984,1984,1984,1984,1984,1984,1984,1984,1984,1984,1985]}
{"type":"line","id":"metro_l8","system":"Metro","name":"Línea 8","color":"#009739","valid_from":1994,"valid_to":9999,"points":[[-99.139788150787,19.444397235086],[-99.141955375671,19.43642490888],[-99.141494750977,19.431243896484],[-99.142255783081,19.426772609418],[-99.143371582031,19.421652813188],[-99.144180297852,19.413330078125],[-99.135754108429,19.408498447018],[-99.126291275024,19.406596035209],[-99.122128486633,19.403114968757],[-99.113502502441,19.398540896103],[-99.112322330475,19.38858273578],[-99.109683036804,19.379231225787],[-99.107730388641,19.37376580902],[-99.109189510345,19.365041004588],[-99.101314544678,19.356174019578],[-99.093997478485,19.357935308399],[-99.085521697998,19.356052550682],[-99.074728488922,19.350728075203],[-99.063591957092,19.345727363947]],"stations":[{"id":"metro_l8_1","name":"Garibaldi / Lagunilla","lon":-99.139788150787,"lat":19.444397235086,"valid_from":1994,"valid_to":9999},{"id":"metro_l8_2","name":"Bellas Artes","lon":-99.141955375671,"lat":19.43642490888,"valid_from":1994,"valid_to":9999},{"id":"metro_l8_3","name":"San Juan de Letrán","lon":-99.141494750977,"lat":19.431243896484,"valid_from":1994,"valid_to":9999},{"id":"metro_l8_4","name":"Salto del Agua","lon":-99.142255783081,"lat":19.426772609418,"valid_from":1994,"valid_to":9999},{"id":"metro_l8_5","name":"Doctores","lon":-99.143371582031,"lat":19.421652813188,"valid_from":1994,"valid_to":9999},{"id":"metro_l8_6","name":"Obrera","lon":-99.144180297852,"lat":19.413330078125,"valid_from":1994,"valid_to":9999},{"id":"metro_l8_7","name":"Chabacano","lon":-99.135754108429,"lat":19.408498447018,"valid_from":1994,"valid_to":9999},{"id":"metro_l8_8","name":"La Viga","lon":-99.126291275024,"lat":19.406596035209,"valid_from":1994,"valid_to":9999},{"id":"metro_l8_9","name":"Santa Anita","lon":-99.122128486633,"lat":19.403114968757,"valid_from":1994,"valid_to":9999},{"id":"metro_l8_10","name":"Coyuya","lon":-99.113502502441,"lat":19.398540896103,"valid_from":1994,"valid_to":9999},{"id":"metro_l8_11","name":"Iztacalco","lon":-99.112322330475,"lat":19.38858273578,"valid_from":1994,"valid_to":9999},{"id":"metro_l8_12","name":"Apatlaco","lon":-99.109683036804,"lat":19.379231225787,"valid_from":1994,"valid_to":9999},{"id":"metro_l8_13","name":"Aculco","lon":-99.107730388641,"lat":19.37376580902,"valid_from":1994,"valid_to":9999},{"id":"metro_l8_14","name":"Escuadrón 201","lon":-99.109189510345,"lat":19.365041004588,"valid_from":1994,"valid_to":9999},{"id":"metro_l8_15","name":"Atlalilco","lon":-99.101314544678,"lat":19.356174019578,"valid_from":1994,"valid_to":9999},{"id":"metro_l8_16","name":"Iztapalapa","lon":-99.093997478485,"lat":19.357935308399,"valid_from":1994,"valid_to":9999},{"id":"metro_l8_17","name":"Cerro de la Estrella","lon":-99.085521697998,"lat":19.356052550682,"valid_from":1994,"valid_to":9999},{"id":"metro_l8_18","name":"UAM-I","lon":-99.074728488922,"lat":19.350728075203,"valid_from":1994,"valid_to":9999},{"id":"metro_l8_19","name":"Constitución de 1917","lon":-99.063591957092,"lat":19.345727363947,"valid_from":1994,"valid_to":9999}],"source_precision":"base_integrada","point_valid_from":[1994,1994,1994,1994,1994,1994,1994,1994,1994,1994,1994,1994,1994,1994,1994,1994,1994,1994,1994]}
{"type":"line","id":"metro_l9","system":"Metro","name":"Línea 9","color":"#6F2C1F","valid_from":1987,"valid_to":9999,"points":[[-99.187123775482,19.40317568567],[-99.178905487061,19.406251979634],[-99.168584346771,19.406069832269],[-99.155623912811,19.407041282521],[-99.144895076752,19.407041282521],[-99.135754108429,19.408498447018],[-99.121763706207,19.409146071493],[-99.11288022995,19.408579400219],[-99.103052616119,19.408559161922],[-99.091250896454,19.408478208712],[-99.082474708557,19.407223428797],[-99.072196483612,19.41535908772]],"stations":[{"id":"metro_l9_1","name":"Tacubaya","lon":-99.187123775482,"lat":19.40317568567,"valid_from":1987,"valid_to":9999},{"id":"metro_l9_2","name":"Patriotismo","lon":-99.178905487061,"lat":19.406251979634,"valid_from":1987,"valid_to":9999},{"id":"metro_l9_3","name":"Chilpancingo","lon":-99.168584346771,"lat":19.406069832269,"valid_from":1987,"valid_to":9999},{"id":"metro_l9_4","name":"Centro Médico","lon":-99.155623912811,"lat":19.407041282521,"valid_from":1987,"valid_to":9999},{"id":"metro_l9_5","name":"Lázaro Cárdenas","lon":-99.144895076752,"lat":19.407041282521,"valid_from":1987,"valid_to":9999},{"id":"metro_l9_6","name":"Chabacano","lon":-99.135754108429,"lat":19.408498447018,"valid_from":1987,"valid_to":9999},{"id":"metro_l9_7","name":"Jamaica","lon":-99.121763706207,"lat":19.409146071493,"valid_from":1987,"valid_to":9999},{"id":"metro_l9_8","name":"Mixiuhca","lon":-99.11288022995,"lat":19.408579400219,"valid_from":1987,"valid_to":9999},{"id":"metro_l9_9","name":"Velódromo","lon":-99.103052616119,"lat":19.408559161922,"valid_from":1987,"valid_to":9999},{"id":"metro_l9_10","name":"Ciudad Deportiva","lon":-99.091250896454,"lat":19.408478208712,"valid_from":1987,"valid_to":9999},{"id":"metro_l9_11","name":"Puebla","lon":-99.082474708557,"lat":19.407223428797,"valid_from":1987,"valid_to":9999},{"id":"metro_l9_12","name":"Pantitlán","lon":-99.072196483612,"lat":19.41535908772,"valid_from":1987,"valid_to":9999}],"source_precision":"base_integrada","point_valid_from":[1987,1987,1987,1987,1987,1987,1987,1987,1987,1987,1987,1987]}
{"type":"line","id":"metro_la","system":"Metro","name":"Línea A","color":"#8E267B","valid_from":1991,"valid_to":9999,"points":[[-99.072217941284,19.415338850268],[-99.069900512695,19.404794795009],[-99.059387207031,19.398733139038],[-99.046361446381,19.391274737581],[-99.035654067993,19.38516200762],[-99.017050266266,19.373320470686],[-99.005677700043,19.364737348692],[-98.995141983032,19.360263419606],[-98.976860046387,19.359048757036],[-98.961002826691,19.350647093245]],"stations":[{"id":"metro_la_1","name":"Pantitlán","lon":-99.072217941284,"lat":19.415338850268,"valid_from":1991,"valid_to":9999},{"id":"metro_la_2","name":"Agrícola Oriental","lon":-99.069900512695,"lat":19.404794795009,"valid_from":1991,"valid_to":9999},{"id":"metro_la_3","name":"Canal de San Juan","lon":-99.059387207031,"lat":19.398733139038,"valid_from":1991,"valid_to":9999},{"id":"metro_la_4","name":"Tepalcates","lon":-99.046361446381,"lat":19.391274737581,"valid_from":1991,"valid_to":9999},{"id":"metro_la_5","name":"Guelatao","lon":-99.035654067993,"lat":19.38516200762,"valid_from":1991,"valid_to":9999},{"id":"metro_la_6","name":"Peñón Viejo","lon":-99.017050266266,"lat":19.373320470686,"valid_from":1991,"valid_to":9999},{"id":"metro_la_7","name":"Acatitla","lon":-99.005677700043,"lat":19.364737348692,"valid_from":1991,"valid_to":9999},{"id":"metro_la_8","name":"Santa Marta","lon":-98.995141983032,"lat":19.360263419606,"valid_from":1991,"valid_to":9999},{"id":"metro_la_9","name":"Los Reyes","lon":-98.976860046387,"lat":19.359048757036,"valid_from":1991,"valid_to":9999},{"id":"metro_la_10","name":"La Paz","lon":-98.961002826691,"lat":19.350647093245,"valid_from":1991,"valid_to":9999}],"source_precision":"base_integrada","point_valid_from":[1991,1991,1991,1991,1991,1991,1991,1991,1991,1991]}
{"type":"line","id":"metro_lb","system":"Metro","name":"Línea B","color":"#B1B3B3","valid_from":1999,"valid_to":9999,"points":[[-99.027500152588,19.534594788807],[-99.030139446259,19.528487459141],[-99.033379554749,19.521328242328],[-99.035654067993,19.515321536084],[-99.041962623596,19.501709554376],[-99.04666185379,19.490968831732],[-99.048871994019,19.485871290237],[-99.05455827713,19.473045813461],[-99.06133890152,19.461716472219],[-99.069020748138,19.458317515453],[-99.079427719116,19.450952864751],[-99.087216854095,19.445752896274],[-99.094340801239,19.440795572747],[-99.103674888611,19.436627257027],[-99.114811420441,19.430273404868],[-99.118266105652,19.438974477102],[-99.123437404633,19.442434541361],[-99.131376743317,19.443365306292],[-99.139766693115,19.444457936575],[-99.14538860321,19.445145885202],[-99.153220653534,19.446542007274]],"stations":[{"id":"metro_lb_1","name":"Ciudad Azteca","lon":-99.027500152588,"lat":19.534594788807,"valid_from":2000,"valid_to":9999},{"id":"metro_lb_2","name":"Plaza Aragón","lon":-99.030139446259,"lat":19.528487459141,"valid_from":2000,"valid_to":9999},{"id":"metro_lb_3","name":"Olímpica","lon":-99.033379554749,"lat":19.521328242328,"valid_from":2000,"valid_to":9999},{"id":"metro_lb_4","name":"Ecatepec","lon":-99.035654067993,"lat":19.515321536084,"valid_from":2000,"valid_to":9999},{"id":"metro_lb_5","name":"Múzquiz","lon":-99.041962623596,"lat":19.501709554376,"valid_from":2000,"valid_to":9999},{"id":"metro_lb_6","name":"Río de los Remedios","lon":-99.04666185379,"lat":19.490968831732,"valid_from":2000,"valid_to":9999},{"id":"metro_lb_7","name":"Impulsora","lon":-99.048871994019,"lat":19.485871290237,"valid_from":2000,"valid_to":9999},{"id":"metro_lb_8","name":"Nezahualcóyotl","lon":-99.05455827713,"lat":19.473045813461,"valid_from":2000,"valid_to":9999},{"id":"metro_lb_9","name":"Villa de Aragón","lon":-99.06133890152,"lat":19.461716472219,"valid_from":2000,"valid_to":9999},{"id":"metro_lb_10","name":"Bosque de Aragón","lon":-99.069020748138,"lat":19.458317515453,"valid_from":2000,"valid_to":9999},{"id":"metro_lb_11","name":"Deportivo Oceanía","lon":-99.079427719116,"lat":19.450952864751,"valid_from":2000,"valid_to":9999},{"id":"metro_lb_12","name":"Oceanía","lon":-99.087216854095,"lat":19.445752896274,"valid_from":2000,"valid_to":9999},{"id":"metro_lb_13","name":"Romero Rubio","lon":-99.094340801239,"lat":19.440795572747,"valid_from":2000,"valid_to":9999},{"id":"metro_lb_14","name":"Ricardo Flores Magón","lon":-99.103674888611,"lat":19.436627257027,"valid_from":1999,"valid_to":9999},{"id":"metro_lb_15","name":"San Lázaro","lon":-99.114811420441,"lat":19.430273404868,"valid_from":1999,"valid_to":9999},{"id":"metro_lb_16","name":"Morelos","lon":-99.118266105652,"lat":19.438974477102,"valid_from":1999,"valid_to":9999},{"id":"metro_lb_17","name":"Tepito","lon":-99.123437404633,"lat":19.442434541361,"valid_from":1999,"valid_to":9999},{"id":"metro_lb_18","name":"Lagunilla","lon":-99.131376743317,"lat":19.443365306292,"valid_from":1999,"valid_to":9999},{"id":"metro_lb_19","name":"Garibaldi / Lagunilla","lon":-99.139766693115,"lat":19.444457936575,"valid_from":1999,"valid_to":9999},{"id":"metro_lb_20","name":"Guerrero","lon":-99.14538860321,"lat":19.445145885202,"valid_from":1999,"valid_to":9999},{"id":"metro_lb_21","name":"Buenavista","lon":-99.153220653534,"lat":19.446542007274,"valid_from":1999,"valid_to":9999}],"source_precision":"base_integrada","point_valid_from":[2000,2000,2000,2000,2000,2000,2000,2000,2000,2000,2000,2000,2000,1999,1999,1999,1999,1999,1999,1999,1999]}
{"type":"line","id":"metro_l12","system":"Metro","name":"Línea 12","color":"#C9A227","valid_from":2012,"valid_to":9999,"points":[[-99.187703,19.37581],[-99.179077,19.373665],[-99.171138,19.372288],[-99.164829,19.370507],[-99.156718,19.370547],[-99.151697,19.361397],[-99.143329,19.360061],[-99.121485,19.35751],[-99.101572,19.356174],[-99.109039,19.33771],[-99.106464,19.328355],[-99.097753,19.322443],[-99.086809,19.320499],[-99.076638,19.318494],[-99.067068,19.306739],[-99.058056,19.303894],[-99.043164,19.298993],[-99.034925,19.296562],[-99.02117,19.294233],[-99.01704,19.290651]],"stations":[{"id":"metro_l12_1","name":"Mixcoac","lon":-99.187703,"lat":19.37581,"valid_from":2012,"valid_to":9999},{"id":"metro_l12_2","name":"Insurgentes Sur","lon":-99.179077,"lat":19.373665,"valid_from":2012,"valid_to":9999},{"id":"metro_l12_3","name":"Hospital 20 de Noviembre","lon":-99.171138,"lat":19.372288,"valid_from":2012,"valid_to":9999},{"id":"metro_l12_4","name":"Zapata","lon":-99.164829,"lat":19.370507,"valid_from":2012,"valid_to":9999},{"id":"metro_l12_5","name":"Parque de los Venados","lon":-99.156718,"lat":19.370547,"valid_from":2012,"valid_to":9999},{"id":"metro_l12_6","name":"Eje Central","lon":-99.151697,"lat":19.361397,"valid_from":2012,"valid_to":9999},{"id":"metro_l12_7","name":"Ermita","lon":-99.143329,"lat":19.360061,"valid_from":2012,"valid_to":9999},{"id":"metro_l12_8","name":"Mexicaltzingo","lon":-99.121485,"lat":19.35751,"valid_from":2012,"valid_to":9999},{"id":"metro_l12_9","name":"Atlalilco","lon":-99.101572,"lat":19.356174,"valid_from":2012,"valid_to":9999},{"id":"metro_l12_10","name":"Culhuacán","lon":-99.109039,"lat":19.33771,"valid_from":2012,"valid_to":9999},{"id":"metro_l12_11","name":"San Andrés Tomatlán","lon":-99.106464,"lat":19.328355,"valid_from":2012,"valid_to":9999},{"id":"metro_l12_12","name":"Lomas Estrella","lon":-99.097753,"lat":19.322443,"valid_from":2012,"valid_to":9999},{"id":"metro_l12_13","name":"Calle 11","lon":-99.086809,"lat":19.320499,"valid_from":2012,"valid_to":9999},{"id":"metro_l12_14","name":"Periférico Oriente","lon":-99.076638,"lat":19.318494,"valid_from":2012,"valid_to":9999},{"id":"metro_l12_15","name":"Tezonco","lon":-99.067068,"lat":19.306739,"valid_from":2012,"valid_to":9999},{"id":"metro_l12_16","name":"Olivos","lon":-99.058056,"lat":19.303894,"valid_from":2012,"valid_to":9999},{"id":"metro_l12_17","name":"Nopalera","lon":-99.043164,"lat":19.298993,"valid_from":2012,"valid_to":9999},{"id":"metro_l12_18","name":"Zapotitlán","lon":-99.034925,"lat":19.296562,"valid_from":2012,"valid_to":9999},{"id":"metro_l12_19","name":"Tlaltenco","lon":-99.02117,"lat":19.294233,"valid_from":2012,"valid_to":9999},{"id":"metro_l12_20","name":"Tláhuac","lon":-99.01704,"lat":19.290651,"valid_from":2012,"valid_to":9999}],"source_precision":"base_integrada","point_valid_from":[2012,2012,2012,2012,2012,2012,2012,2012,2012,2012,2012,2012,2012,2012,2012,2012,2012,2012,2012,2012]}
{"type":"line","id":"mb_l1","system":"Metrobús","name":"Línea 1","color":"#D21F26","valid_from":2005,"valid_to":9999,"points":[[-99.17,19.312],[-99.158,19.36],[-99.157,19.397],[-99.155,19.432],[-99.15,19.494],[-99.156,19.516]],"stations":[{"id":"mb_l1_1","name":"El Caminero","lon":-99.17,"lat":19.312,"valid_from":2008,"valid_to":9999},{"id":"mb_l1_2","name":"Ciudad Universitaria","lon":-99.158,"lat":19.36,"valid_from":2008,"valid_to":9999},{"id":"mb_l1_3","name":"Centro Médico","lon":-99.157,"lat":19.397,"valid_from":2005,"valid_to":9999},{"id":"mb_l1_4","name":"Reforma","lon":-99.155,"lat":19.432,"valid_from":2005,"valid_to":9999},{"id":"mb_l1_5","name":"Deportivo 18 de Marzo","lon":-99.15,"lat":19.494,"valid_from":2005,"valid_to":9999},{"id":"mb_l1_6","name":"Indios Verdes","lon":-99.156,"lat":19.516,"valid_from":2005,"valid_to":9999}],"source_precision":"base_integrada","point_valid_from":[2008,2008,2005,2005,2005,2005]}
{"type":"line","id":"mb_l2","system":"Metrobús","name":"Línea 2","color":"#7A1FA2","valid_from":2008,"valid_to":9999,"points":[[-99.203,19.394],[-99.165,19.397],[-99.128,19.399],[-99.095,19.398],[-99.0464,19.3913]],"stations":[{"id":"mb_l2_1","name":"Tacubaya","lon":-99.203,"lat":19.394,"valid_from":2008,"valid_to":9999},{"id":"mb_l2_2","name":"Patriotismo","lon":-99.165,"lat":19.397,"valid_from":2008,"valid_to":9999},{"id":"mb_l2_3","name":"Etiopía","lon":-99.128,"lat":19.399,"valid_from":2008,"valid_to":9999},{"id":"mb_l2_4","name":"Iztacalco","lon":-99.095,"lat":19.398,"valid_from":2008,"valid_to":9999},{"id":"mb_l2_5","name":"Tepalcates","lon":-99.0464,"lat":19.3913,"valid_from":2008,"valid_to":9999}],"source_precision":"base_integrada","point_valid_from":[2008,2008,2008,2008,2008]}
{"type":"line","id":"mb_l3","system":"Metrobús","name":"Línea 3","color":"#5D9CEC","valid_from":2011,"valid_to":9999,"points":[[-99.158,19.505],[-99.153,19.47],[-99.148,19.443],[-99.145,19.42],[-99.142,19.389]],"stations":[{"id":"mb_l3_1","name":"Tenayuca","lon":-99.158,"lat":19.505,"valid_from":2011,"valid_to":9999},{"id":"mb_l3_2","name":"La Raza","lon":-99.153,"lat":19.47,"valid_from":2011,"valid_to":9999},{"id":"mb_l3_3","name":"Buenavista","lon":-99.148,"lat":19.443,"valid_from":2011,"valid_to":9999},{"id":"mb_l3_4","name":"Juárez","lon":-99.145,"lat":19.42,"valid_from":2011,"valid_to":9999},{"id":"mb_l3_5","name":"Etiopía","lon":-99.142,"lat":19.389,"valid_from":2011,"valid_to":9999}],"source_precision":"base_integrada","point_valid_from":[2011,2011,2011,2011,2011]}
{"type":"line","id":"mb_l4","system":"Metrobús","name":"Línea 4","color":"#F28C28","valid_from":2012,"valid_to":9999,"points":[[-99.164,19.436],[-99.145,19.434],[-99.124,19.436],[-99.103,19.436],[-99.083,19.436]],"stations":[{"id":"mb_l4_1","name":"Buenavista","lon":-99.164,"lat":19.436,"valid_from":2012,"valid_to":9999},{"id":"mb_l4_2","name":"República de Argentina","lon":-99.145,"lat":19.434,"valid_from":2012,"valid_to":9999},{"id":"mb_l4_3","name":"San Lázaro","lon":-99.124,"lat":19.436,"valid_from":2012,"valid_to":9999},{"id":"mb_l4_4","name":"Aeropuerto T1","lon":-99.103,"lat":19.436,"valid_from":2012,"valid_to":9999},{"id":"mb_l4_5","name":"Aeropuerto T2","lon":-99.083,"lat":19.436,"valid_from":2012,"valid_to":9999}],"source_precision":"base_integrada","point_valid_from":[2012,2012,2012,2012,2012]}
{"type":"line","id":"mb_l5","system":"Metrobús","name":"Línea 5","color":"#00A886","valid_from":2013,"valid_to":9999,"points":[[-99.119,19.486],[-99.106,19.455],[-99.103,19.426],[-99.101,19.392],[-99.1,19.345]],"stations":[{"id":"mb_l5_1","name":"Río de los Remedios","lon":-99.119,"lat":19.486,"valid_from":2013,"valid_to":9999},{"id":"mb_l5_2","name":"San Lázaro","lon":-99.106,"lat":19.455,"valid_from":2013,"valid_to":9999},{"id":"mb_l5_3","name":"Coyuya","lon":-99.103,"lat":19.426,"valid_from":2013,"valid_to":9999},{"id":"mb_l5_4","name":"Preparatoria 1","lon":-99.101,"lat":19.392,"valid_from":2020,"valid_to":9999},{"id":"mb_l5_5","name":"Las Bombas","lon":-99.1,"lat":19.345,"valid_from":2020,"valid_to":9999}],"source_precision":"base_integrada","point_valid_from":[2013,2013,2013,2020,2020]}
{"type":"line","id":"mb_l6","system":"Metrobús","name":"Línea 6","color":"#E91E63","valid_from":2016,"valid_to":9999,"points":[[-99.187,19.488],[-99.15,19.49],[-99.119,19.486],[-99.082,19.486]],"stations":[{"id":"mb_l6_1","name":"El Rosario","lon":-99.187,"lat":19.488,"valid_from":2016,"valid_to":9999},{"id":"mb_l6_2","name":"Instituto del Petróleo","lon":-99.15,"lat":19.49,"valid_from":2016,"valid_to":9999},{"id":"mb_l6_3","name":"Martín Carrera","lon":-99.119,"lat":19.486,"valid_from":2016,"valid_to":9999},{"id":"mb_l6_4","name":"Villa de Aragón","lon":-99.082,"lat":19.486,"valid_from":2016,"valid_to":9999}],"source_precision":"base_integrada","point_valid_from":[2016,2016,2016,2016]}
{"type":"line","id":"mb_l7","system":"Metrobús","name":"Línea 7","color":"#3F51B5","valid_from":2018,"valid_to":9999,"points":[[-99.119,19.486],[-99.135,19.462],[-99.155,19.432],[-99.178,19.422],[-99.205,19.425]],"stations":[{"id":"mb_l7_1","name":"Indios Verdes","lon":-99.119,"lat":19.486,"valid_from":2018,"valid_to":9999},{"id":"mb_l7_2","name":"Misterios","lon":-99.135,"lat":19.462,"valid_from":2018,"valid_to":9999},{"id":"mb_l7_3","name":"Glorieta de Colón","lon":-99.155,"lat":19.432,"valid_from":2018,"valid_to":9999},{"id":"mb_l7_4","name":"Campo Marte","lon":-99.178,"lat":19.422,"valid_from":2018,"valid_to":9999},{"id":"mb_l7_5","name":"La Diana","lon":-99.205,"lat":19.425,"valid_from":2018,"valid_to":9999}],"source_precision":"base_integrada","point_valid_from":[2018,2018,2018,2018,2018]}
